[
  {
    "id": "wh_001",
    "name": "蛇山人防工程纳凉点（民主路入口）",
    "address": "湖北省武汉市武昌区民主路284号",
    "district": "武昌区",
    "type": "防空洞",
    "subtype": "山体坑道式防空洞",
    "description": "位于蛇山山体下的早期人防工程，上世纪70年代响应'深挖洞、广积粮'号召建造。洞内温度长期保持在20度左右，共有16个入口。纳凉点设有综合活动区、运动区、阅览室，配备休闲座椅、免费WiFi、乒乓球台、饮用水、电视机、卫生间等设施，可容纳300-400人。",
    "coordinates": {
      "lat": 30.5432,
      "lng": 114.3072
    },
    "map_search": "蛇山人防工程纳凉点",
    "capacity": 400,
    "status": "开放纳凉",
    "features": [
      "山体坑道",
      "恒温20度",
      "WiFi覆盖",
      "运动区",
      "阅览室"
    ],
    "source": "武汉市国防动员办公室",
    "note": "距黄鹤楼步行仅550米，开放时间10:00-22:00"
  },
  {
    "id": "wh_002",
    "name": "蛇山人防工程纳凉点（后长街入口）",
    "address": "湖北省武汉市武昌区解放路后长街76号",
    "district": "武昌区",
    "type": "防空洞",
    "subtype": "山体坑道式防空洞",
    "description": "蛇山人防工程1号口部，总面积超过1000平方米。该入口曾是黄鹤楼商场，2023年改造为纳凉点。",
    "coordinates": {
      "lat": 30.545,
      "lng": 114.305
    },
    "map_search": "蛇山人防工程后长街",
    "capacity": 300,
    "status": "开放纳凉",
    "features": [
      "山体坑道",
      "近黄鹤楼"
    ],
    "source": "武汉市国防动员办公室"
  },
  {
    "id": "wh_003",
    "name": "武汉大学珞珈山防空洞",
    "address": "湖北省武汉市武昌区八一路299号武汉大学内",
    "district": "武昌区",
    "type": "防空洞",
    "subtype": "山体坑道式防空洞",
    "description": "抗战时期开凿的山体防空洞，从抗战时期至今默默庇护着武大。一头连着梅园邮政室，另一头连着家属区，穿过防空洞从教学区直通家属区只需5分钟。因恒温、抗干扰好，后改建为地震大地测量实验室和珞珈山弱磁实验室。",
    "coordinates": {
      "lat": 30.5438,
      "lng": 114.3729
    },
    "map_search": "武汉大学珞珈山防空洞",
    "capacity": 200,
    "status": "实验室用途",
    "features": [
      "抗战历史",
      "科研实验室",
      "山体坑道",
      "武大专属"
    ],
    "source": "武汉大学后勤保障处"
  },
  {
    "id": "wh_004",
    "name": "廉政文化公园地下人防工程",
    "address": "湖北省武汉市武昌区廉政文化公园地下",
    "district": "武昌区",
    "type": "人防工程",
    "subtype": "公园地下人防",
    "description": "人防工程改建的地下停车场，外观平平无奇，实为曾背负时代使命的防空洞。",
    "coordinates": {
      "lat": 30.538,
      "lng": 114.31
    },
    "map_search": "武昌廉政文化公园",
    "capacity": 300,
    "status": "停车场/战时掩蔽",
    "features": [
      "平战结合",
      "地下停车场"
    ],
    "source": "武昌区建设局"
  },
  {
    "id": "wh_005",
    "name": "719所地下防御工程",
    "address": "湖北省武汉市武昌区中山路450号七一九研究所22、23楼下",
    "district": "武昌区",
    "type": "人防工程",
    "subtype": "科研单位配建人防",
    "description": "719研究所配套地下防御工程，面积1500平方米。",
    "coordinates": {
      "lat": 30.5318,
      "lng": 114.3184
    },
    "map_search": "七一九研究所",
    "capacity": 500,
    "status": "单位内部使用",
    "features": [
      "科研单位配建"
    ],
    "source": "武昌区应急管理局"
  },
  {
    "id": "wh_006",
    "name": "武昌区金沙泊岸地下车库人防工程",
    "address": "湖北省武汉市武昌区徐家棚街道沙湖大道217号金沙泊岸地下车库",
    "district": "武昌区",
    "type": "人防工程",
    "subtype": "住宅配建人防地下室",
    "description": "金沙泊岸小区配套人防工程避难所，面积117588.28平方米，设有防护单元。",
    "coordinates": {
      "lat": 30.58,
      "lng": 114.3582
    },
    "map_search": "金沙泊岸小区",
    "capacity": 10000,
    "status": "平战结合",
    "features": [
      "大型住宅配建",
      "超大容量"
    ],
    "source": "武昌区应急管理局"
  },
  {
    "id": "wh_007",
    "name": "武昌区西斯莱小区人防工程",
    "address": "湖北省武汉市武昌区徐家棚街道和平大道814号西斯莱小区",
    "district": "武昌区",
    "type": "人防工程",
    "subtype": "住宅配建人防地下室",
    "description": "西斯莱小区配套人防工程，面积14000平方米。",
    "coordinates": {
      "lat": 30.5875,
      "lng": 114.3299
    },
    "map_search": "西斯莱小区",
    "capacity": 2000,
    "status": "平战结合",
    "features": [
      "住宅配建"
    ],
    "source": "武昌区应急管理局"
  },
  {
    "id": "wh_008",
    "name": "武昌区绿地名邸小区人防工程",
    "address": "湖北省武汉市武昌区徐家棚街道和平大道750号绿地名邸小区",
    "district": "武昌区",
    "type": "人防工程",
    "subtype": "住宅配建人防地下室",
    "description": "绿地名邸小区配套人防工程，面积42000平方米。",
    "coordinates": {
      "lat": 30.5857,
      "lng": 114.3287
    },
    "map_search": "绿地名邸",
    "capacity": 5000,
    "status": "平战结合",
    "features": [
      "大型住宅配建"
    ],
    "source": "武昌区应急管理局"
  },
  {
    "id": "wh_009",
    "name": "水岸星城社区人防工程",
    "address": "湖北省武汉市武昌区秦园路118号水岸星城小区B区3号地库",
    "district": "武昌区",
    "type": "人防工程",
    "subtype": "住宅配建人防地下室",
    "description": "水岸星城小区配套人防工程，面积4120平方米。",
    "coordinates": {
      "lat": 30.5819,
      "lng": 114.35
    },
    "map_search": "水岸星城",
    "capacity": 800,
    "status": "平战结合",
    "features": [
      "住宅配建"
    ],
    "source": "武昌区应急管理局"
  },
  {
    "id": "wh_010",
    "name": "水域天际小区人防工程",
    "address": "湖北省武汉市武昌区南湖街道建安街300号水域天际小区",
    "district": "武昌区",
    "type": "人防工程",
    "subtype": "住宅配建人防地下室",
    "description": "水域天际小区25-26栋、39栋地下人防工程，总面积5200平方米。",
    "coordinates": {
      "lat": 30.508,
      "lng": 114.3286
    },
    "map_search": "水域天际小区",
    "capacity": 1000,
    "status": "平战结合",
    "features": [
      "住宅配建"
    ],
    "source": "武昌区应急管理局"
  },
  {
    "id": "wh_011",
    "name": "南国SOHO小区地下人防工程",
    "address": "湖北省武汉市武昌区南湖街道雅安街294号南国SOHO小区",
    "district": "武昌区",
    "type": "人防工程",
    "subtype": "住宅配建人防地下室",
    "description": "南国SOHO小区配套人防工程，面积1500平方米。",
    "coordinates": {
      "lat": 30.5149,
      "lng": 114.3274
    },
    "map_search": "南国SOHO",
    "capacity": 400,
    "status": "平战结合",
    "features": [
      "住宅配建"
    ],
    "source": "武昌区应急管理局"
  },
  {
    "id": "wh_012",
    "name": "风华天城桃花林地下人防工程",
    "address": "湖北省武汉市武昌区南湖街道水域风华社区平安路150号风华天城小区",
    "district": "武昌区",
    "type": "人防工程",
    "subtype": "住宅配建人防地下室",
    "description": "风华天城小区配套人防工程，面积1600平方米。",
    "coordinates": {
      "lat": 30.5108,
      "lng": 114.3276
    },
    "map_search": "风华天城",
    "capacity": 450,
    "status": "平战结合",
    "features": [
      "住宅配建"
    ],
    "source": "武昌区应急管理局"
  }
]