{
  "cities": [
    {
      "city": "北京",
      "center": [116.4074, 39.9042],
      "shelters": [
        {"name": "西单地下人防工程", "type": "civil", "level": "high", "lat": 39.9109, "lng": 116.3726, "capacity": 5000, "address": "西单北大街地下", "description": "大型平战结合人防工程"},
        {"name": "天安门地下通道避难所", "type": "bunker", "level": "high", "lat": 39.9055, "lng": 116.3976, "capacity": 10000, "address": "天安门广场地下", "description": "国家级重点人防工程"},
        {"name": "东直门地铁站", "type": "metro", "level": "medium", "lat": 39.9401, "lng": 116.4354, "capacity": 3000, "address": "东直门外大街", "description": "地铁2号线/13号线/机场线换乘站"},
        {"name": "西直门地下商场", "type": "underground", "level": "basic", "lat": 39.9368, "lng": 116.3555, "capacity": 2000, "address": "西直门外大街地下", "description": "凯德MALL·西直门地下空间"},
        {"name": "国贸地铁站", "type": "metro", "level": "medium", "lat": 39.9093, "lng": 116.4583, "capacity": 3500, "address": "建国路88号地下", "description": "地铁1号线/10号线换乘站"},
        {"name": "王府井地下人防", "type": "civil", "level": "high", "lat": 39.911, "lng": 116.411, "capacity": 6000, "address": "王府井大街地下", "description": "王府井地下步行街人防工程"},
        {"name": "复兴门地铁站", "type": "metro", "level": "medium", "lat": 39.9072, "lng": 116.3569, "capacity": 4000, "address": "复兴门内大街", "description": "地铁1号线/2号线换乘站"},
        {"name": "朝阳门地下商场", "type": "underground", "level": "basic", "lat": 39.9239, "lng": 116.4326, "capacity": 2500, "address": "朝阳门内大街地下", "description": "银河SOHO地下空间"},
        {"name": "军事博物馆人防工程", "type": "bunker", "level": "high", "lat": 39.9074, "lng": 116.3211, "capacity": 8000, "address": "复兴路9号地下", "description": "军事博物馆配套人防工程"},
        {"name": "北京站地下避难所", "type": "civil", "level": "high", "lat": 39.9049, "lng": 116.4275, "capacity": 7000, "address": "北京站东街地下", "description": "火车站人防工程"},
        {"name": "西单地铁站", "type": "metro", "level": "medium", "lat": 39.9103, "lng": 116.3739, "capacity": 4500, "address": "西单北大街", "description": "地铁1号线/4号线换乘站"},
        {"name": "东单地铁站", "type": "metro", "level": "medium", "lat": 39.9073, "lng": 116.4186, "capacity": 3800, "address": "东单北大街", "description": "地铁1号线/5号线换乘站"},
        {"name": "建国门地铁站", "type": "metro", "level": "medium", "lat": 39.9083, "lng": 116.4356, "capacity": 3500, "address": "建国门内大街", "description": "地铁1号线/2号线换乘站"},
        {"name": "朝阳大悦城地下空间", "type": "underground", "level": "medium", "lat": 39.9237, "lng": 116.5185, "capacity": 5000, "address": "朝阳北路101号地下", "description": "大型商业综合体地下人防"},
        {"name": "中关村广场地下", "type": "civil", "level": "high", "lat": 39.9812, "lng": 116.3108, "capacity": 6000, "address": "中关村大街地下", "description": "中关村核心区人防工程"}
      ]
    },
    {
      "city": "上海",
      "center": [121.4737, 31.2304],
      "shelters": [
        {"name": "人民广场地下空间", "type": "civil", "level": "high", "lat": 31.2328, "lng": 121.4737, "capacity": 8000, "address": "人民广场地下", "description": "大型综合人防工程"},
        {"name": "徐家汇地铁站", "type": "metro", "level": "medium", "lat": 31.1955, "lng": 121.4377, "capacity": 4000, "address": "肇嘉浜路", "description": "地铁1号线/9号线/11号线换乘站"},
        {"name": "陆家嘴地下通道", "type": "underground", "level": "medium", "lat": 31.2397, "lng": 121.4998, "capacity": 3500, "address": "陆家嘴环路地下", "description": "金融区地下人防通道"},
        {"name": "虹桥火车站地下", "type": "civil", "level": "high", "lat": 31.1946, "lng": 121.3206, "capacity": 10000, "address": "申贵路", "description": "交通枢纽人防工程"},
        {"name": "静安寺地铁站", "type": "metro", "level": "medium", "lat": 31.2244, "lng": 121.4465, "capacity": 3000, "address": "南京西路", "description": "地铁2号线/7号线/14号线换乘站"},
        {"name": "五角场地下商场", "type": "underground", "level": "basic", "lat": 31.2989, "lng": 121.5146, "capacity": 2800, "address": "翔殷路地下", "description": "五角场商圈地下空间"},
        {"name": "浦东国际机场T1", "type": "bunker", "level": "high", "lat": 31.1443, "lng": 121.8083, "capacity": 8000, "address": "浦东机场T1航站楼地下", "description": "机场重点人防工程"},
        {"name": "上海火车站地下", "type": "civil", "level": "high", "lat": 31.2495, "lng": 121.4559, "capacity": 7000, "address": "秣陵路", "description": "火车站人防工程"},
        {"name": "世纪大道地铁站", "type": "metro", "level": "medium", "lat": 31.2317, "lng": 121.5261, "capacity": 4500, "address": "世纪大道", "description": "地铁2号线/4号线/6号线/9号线换乘站"},
        {"name": "龙阳路地铁站", "type": "metro", "level": "medium", "lat": 31.2034, "lng": 121.5575, "capacity": 5000, "address": "龙阳路", "description": "地铁2号线/7号线/16号线/18号线/磁悬浮换乘站"}
      ]
    },
    {
      "city": "广州",
      "center": [113.2644, 23.1291],
      "shelters": [
        {"name": "珠江新城地下空间", "type": "civil", "level": "high", "lat": 23.1249, "lng": 113.3268, "capacity": 7000, "address": "珠江新城核心区地下", "description": "CBD综合人防工程"},
        {"name": "体育西路地铁站", "type": "metro", "level": "medium", "lat": 23.1373, "lng": 113.3215, "capacity": 4500, "address": "体育西路", "description": "地铁1号线/3号线换乘站"},
        {"name": "广州东站地下", "type": "civil", "level": "high", "lat": 23.1514, "lng": 113.3249, "capacity": 6000, "address": "东站路", "description": "火车站人防工程"},
        {"name": "白云国际机场T2", "type": "bunker", "level": "high", "lat": 23.3925, "lng": 113.2993, "capacity": 8000, "address": "机场大道东", "description": "机场重点人防工程"},
        {"name": "天河城地下商场", "type": "underground", "level": "medium", "lat": 23.1354, "lng": 113.3228, "capacity": 3500, "address": "天河路208号地下", "description": "天河商圈地下空间"},
        {"name": "公园前地铁站", "type": "metro", "level": "medium", "lat": 23.1255, "lng": 113.2646, "capacity": 4000, "address": "中山五路", "description": "地铁1号线/2号线换乘站"}
      ]
    },
    {
      "city": "深圳",
      "center": [114.0579, 22.5431],
      "shelters": [
        {"name": "福田中心区地下", "type": "civil", "level": "high", "lat": 22.5431, "lng": 114.0579, "capacity": 6000, "address": "福华路地下", "description": "市民中心人防工程"},
        {"name": "罗湖火车站地下", "type": "civil", "level": "high", "lat": 22.5318, "lng": 114.1159, "capacity": 7000, "address": "建设路", "description": "罗湖口岸人防工程"},
        {"name": "宝安国际机场", "type": "bunker", "level": "high", "lat": 22.6393, "lng": 113.8107, "capacity": 8000, "address": "宝安大道", "description": "机场重点人防工程"},
        {"name": "会展中心地铁站", "type": "metro", "level": "medium", "lat": 22.5363, "lng": 114.0555, "capacity": 3500, "address": "福华三路", "description": "地铁1号线/4号线换乘站"},
        {"name": "华强北地下空间", "type": "underground", "level": "medium", "lat": 22.5445, "lng": 114.0856, "capacity": 4000, "address": "华强北路地下", "description": "华强北商圈地下空间"}
      ]
    },
    {
      "city": "成都",
      "center": [104.0668, 30.5728],
      "shelters": [
        {"name": "天府广场地下空间", "type": "civil", "level": "high", "lat": 30.6574, "lng": 104.0633, "capacity": 6000, "address": "天府广场地下", "description": "市中心综合人防工程"},
        {"name": "春熙路地铁站", "type": "metro", "level": "medium", "lat": 30.6556, "lng": 104.0805, "capacity": 3000, "address": "春熙路", "description": "地铁2号线/3号线换乘站"},
        {"name": "火车南站地下", "type": "civil", "level": "high", "lat": 30.6021, "lng": 104.0636, "capacity": 7000, "address": "天仁路", "description": "高铁站人防工程"},
        {"name": "双流国际机场T2", "type": "bunker", "level": "high", "lat": 30.5786, "lng": 103.9468, "capacity": 8000, "address": "机场南三路", "description": "机场重点人防工程"},
        {"name": "太古里地下商场", "type": "underground", "level": "medium", "lat": 30.6547, "lng": 104.0816, "capacity": 2800, "address": "中纱帽街地下", "description": "春熙路商圈地下空间"}
      ]
    },
    {
      "city": "武汉",
      "center": [114.3054, 30.5928],
      "shelters": [
        {"name": "汉口火车站地下", "type": "civil", "level": "high", "lat": 30.6243, "lng": 114.257, "capacity": 6000, "address": "发展大道", "description": "火车站人防工程"},
        {"name": "洪山广场地下", "type": "civil", "level": "high", "lat": 30.5445, "lng": 114.3358, "capacity": 5500, "address": "洪山路", "description": "市中心人防工程"},
        {"name": "中山公园地铁站", "type": "metro", "level": "medium", "lat": 30.5936, "lng": 114.2706, "capacity": 3000, "address": "解放大道", "description": "地铁2号线站点"},
        {"name": "江汉路地下商业街", "type": "underground", "level": "basic", "lat": 30.5867, "lng": 114.2919, "capacity": 2500, "address": "江汉路地下", "description": "江汉路商圈地下空间"},
        {"name": "天河机场T3", "type": "bunker", "level": "high", "lat": 30.7762, "lng": 114.2123, "capacity": 8000, "address": "机场大道", "description": "机场重点人防工程"},
        {"name": "光谷广场地铁站", "type": "metro", "level": "medium", "lat": 30.5056, "lng": 114.4078, "capacity": 4000, "address": "珞喻路", "description": "地铁2号线/11号线换乘站"}
      ]
    },
    {
      "city": "西安",
      "center": [108.9398, 34.3416],
      "shelters": [
        {"name": "钟楼地下环形通道", "type": "civil", "level": "high", "lat": 34.261, "lng": 108.9398, "capacity": 5000, "address": "钟楼地下", "description": "市中心环形人防通道"},
        {"name": "北客站地下", "type": "civil", "level": "high", "lat": 34.3767, "lng": 108.9383, "capacity": 7000, "address": "元朔路", "description": "高铁站人防工程"},
        {"name": "小寨地铁站", "type": "metro", "level": "medium", "lat": 34.2241, "lng": 108.9403, "capacity": 3500, "address": "长安中路", "description": "地铁2号线/3号线换乘站"},
        {"name": "回民街地下空间", "type": "underground", "level": "basic", "lat": 34.2632, "lng": 108.9465, "capacity": 2000, "address": "北院门地下", "description": "旅游商圈地下空间"},
        {"name": "咸阳国际机场T3", "type": "bunker", "level": "high", "lat": 34.4471, "lng": 108.7516, "capacity": 8000, "address": "机场大道", "description": "机场重点人防工程"}
      ]
    },
    {
      "city": "重庆",
      "center": [106.5516, 29.563],
      "shelters": [
        {"name": "解放碑地下空间", "type": "civil", "level": "high", "lat": 29.5583, "lng": 106.5734, "capacity": 6000, "address": "解放碑地下", "description": "CBD综合人防工程"},
        {"name": "重庆北站地下", "type": "civil", "level": "high", "lat": 29.6086, "lng": 106.5531, "capacity": 7000, "address": "昆仑大道", "description": "火车站人防工程"},
        {"name": "观音桥地铁站", "type": "metro", "level": "medium", "lat": 29.574, "lng": 106.5329, "capacity": 3500, "address": "观音桥步行街", "description": "地铁3号线/9号线换乘站"},
        {"name": "江北国际机场T3", "type": "bunker", "level": "high", "lat": 29.7223, "lng": 106.6385, "capacity": 8000, "address": "机场东三路", "description": "机场重点人防工程"},
        {"name": "沙坪坝地下空间", "type": "underground", "level": "medium", "lat": 29.5585, "lng": 106.4577, "capacity": 3000, "address": "三峡广场地下", "description": "沙坪坝商圈地下空间"}
      ]
    },
    {
      "city": "南京",
      "center": [118.7969, 32.0603],
      "shelters": [
        {"name": "新街口地下空间", "type": "civil", "level": "high", "lat": 32.0415, "lng": 118.7843, "capacity": 6000, "address": "中山路地下", "description": "市中心综合人防工程"},
        {"name": "南京南站地下", "type": "civil", "level": "high", "lat": 31.9708, "lng": 118.802, "capacity": 7000, "address": "玉兰路", "description": "高铁站人防工程"},
        {"name": "夫子庙地铁站", "type": "metro", "level": "medium", "lat": 32.0226, "lng": 118.7943, "capacity": 3000, "address": "平江府路", "description": "地铁3号线站点"},
        {"name": "禄口机场T2", "type": "bunker", "level": "high", "lat": 31.742, "lng": 118.8635, "capacity": 7000, "address": "机场大道", "description": "机场重点人防工程"}
      ]
    },
    {
      "city": "杭州",
      "center": [120.1551, 30.2741],
      "shelters": [
        {"name": "武林广场地下", "type": "civil", "level": "high", "lat": 30.2758, "lng": 120.165, "capacity": 5000, "address": "体育场路", "description": "市中心人防工程"},
        {"name": "火车东站地下", "type": "civil", "level": "high", "lat": 30.2936, "lng": 120.2115, "capacity": 7000, "address": "全福桥路", "description": "高铁站人防工程"},
        {"name": "龙翔桥地铁站", "type": "metro", "level": "medium", "lat": 30.2578, "lng": 120.1652, "capacity": 3000, "address": "平海路", "description": "地铁1号线站点"},
        {"name": "萧山国际机场T4", "type": "bunker", "level": "high", "lat": 30.2295, "lng": 120.4344, "capacity": 8000, "address": "空港大道", "description": "机场重点人防工程"}
      ]
    },
    {
      "city": "天津",
      "center": [117.2009, 39.0842],
      "shelters": [
        {"name": "天津站地下", "type": "civil", "level": "high", "lat": 39.134, "lng": 117.2108, "capacity": 6000, "address": "建国道", "description": "火车站人防工程"},
        {"name": "天津西站地下", "type": "civil", "level": "high", "lat": 39.1585, "lng": 117.1634, "capacity": 5500, "address": "西站前街", "description": "高铁站人防工程"},
        {"name": "滨江道地下商业街", "type": "underground", "level": "basic", "lat": 39.1178, "lng": 117.1954, "capacity": 3000, "address": "滨江道地下", "description": "滨江道商圈地下空间"},
        {"name": "和平路地铁站", "type": "metro", "level": "medium", "lat": 39.1173, "lng": 117.1893, "capacity": 2800, "address": "和平路", "description": "地铁3号线站点"},
        {"name": "滨海国际机场T2", "type": "bunker", "level": "high", "lat": 39.1226, "lng": 117.352, "capacity": 7000, "address": "机场大道", "description": "机场重点人防工程"},
        {"name": "小白楼地铁站", "type": "metro", "level": "medium", "lat": 39.1126, "lng": 117.2134, "capacity": 3200, "address": "南京路", "description": "地铁1号线站点"},
        {"name": "津湾广场地下", "type": "civil", "level": "high", "lat": 39.1312, "lng": 117.2056, "capacity": 4500, "address": "解放北路", "description": "津湾广场人防工程"},
        {"name": "文化中心地下", "type": "underground", "level": "medium", "lat": 39.0901, "lng": 117.2156, "capacity": 4000, "address": "友谊路", "description": "文化中心地下空间"},
        {"name": "南开大学地下", "type": "civil", "level": "medium", "lat": 39.1023, "lng": 117.1728, "capacity": 5000, "address": "卫津路", "description": "高校人防工程"},
        {"name": "天津医科大学地下", "type": "civil", "level": "medium", "lat": 39.1008, "lng": 117.1856, "capacity": 3500, "address": "气象台路", "description": "医疗人防工程"}
      ]
    },
    {
      "city": "青岛",
      "center": [120.3826, 36.0671],
      "shelters": [
        {"name": "青岛站地下", "type": "civil", "level": "high", "lat": 36.0596, "lng": 120.3087, "capacity": 5000, "address": "泰安路", "description": "火车站人防工程"},
        {"name": "青岛北站地下", "type": "civil", "level": "high", "lat": 36.1716, "lng": 120.3847, "capacity": 6000, "address": "静乐路", "description": "高铁站人防工程"},
        {"name": "五四广场地下", "type": "civil", "level": "high", "lat": 36.0601, "lng": 120.384, "capacity": 4500, "address": "香港中路", "description": "市中心人防工程"},
        {"name": "台东地铁站", "type": "metro", "level": "medium", "lat": 36.0834, "lng": 120.3559, "capacity": 3000, "address": "台东一路", "description": "地铁2号线站点"},
        {"name": "流亭国际机场", "type": "bunker", "level": "high", "lat": 36.2669, "lng": 120.3816, "capacity": 6000, "address": "民航路", "description": "机场重点人防工程"},
        {"name": "崂山风景区地下", "type": "civil", "level": "medium", "lat": 36.1978, "lng": 120.6256, "capacity": 3500, "address": "崂山路", "description": "旅游区人防工程"}
      ]
    },
    {
      "city": "大连",
      "center": [121.6147, 38.914],
      "shelters": [
        {"name": "大连站地下", "type": "civil", "level": "high", "lat": 38.9225, "lng": 121.6204, "capacity": 5500, "address": "长江路", "description": "火车站人防工程"},
        {"name": "大连北站地下", "type": "civil", "level": "high", "lat": 39.0089, "lng": 121.609, "capacity": 6000, "address": "华北路", "description": "高铁站人防工程"},
        {"name": "青泥洼桥地下", "type": "underground", "level": "medium", "lat": 38.9189, "lng": 121.6285, "capacity": 4000, "address": "中山路", "description": "商业中心地下空间"},
        {"name": "星海广场地下", "type": "civil", "level": "high", "lat": 38.9037, "lng": 121.6808, "capacity": 5000, "address": "星海广场", "description": "广场人防工程"},
        {"name": "周水子国际机场", "type": "bunker", "level": "high", "lat": 38.9656, "lng": 121.5392, "capacity": 6500, "address": "迎客路", "description": "机场重点人防工程"}
      ]
    },
    {
      "city": "厦门",
      "center": [118.0894, 24.4798],
      "shelters": [
        {"name": "厦门站地下", "type": "civil", "level": "high", "lat": 24.4694, "lng": 118.114, "capacity": 5000, "address": "厦禾路", "description": "火车站人防工程"},
        {"name": "厦门北站地下", "type": "civil", "level": "high", "lat": 24.6389, "lng": 118.0723, "capacity": 6000, "address": "珩圣路", "description": "高铁站人防工程"},
        {"name": "中山路地下", "type": "underground", "level": "medium", "lat": 24.4623, "lng": 118.0823, "capacity": 3500, "address": "中山路", "description": "商业区地下空间"},
        {"name": "鼓浪屿轮渡地下", "type": "civil", "level": "medium", "lat": 24.4628, "lng": 118.0689, "capacity": 3000, "address": "东渡路", "description": "码头人防工程"},
        {"name": "高崎国际机场T4", "type": "bunker", "level": "high", "lat": 24.535, "lng": 118.1326, "capacity": 6000, "address": "翔云一路", "description": "机场重点人防工程"},
        {"name": "厦门大学地下", "type": "civil", "level": "medium", "lat": 24.4393, "lng": 118.0983, "capacity": 4000, "address": "思明南路", "description": "高校人防工程"}
      ]
    },
    {
      "city": "苏州",
      "center": [120.5853, 31.2989],
      "shelters": [
        {"name": "苏州站地下", "type": "civil", "level": "high", "lat": 31.3308, "lng": 120.6083, "capacity": 5500, "address": "苏站路", "description": "火车站人防工程"},
        {"name": "苏州北站地下", "type": "civil", "level": "high", "lat": 31.4238, "lng": 120.6398, "capacity": 6000, "address": "南天成路", "description": "高铁站人防工程"},
        {"name": "观前街地下", "type": "underground", "level": "medium", "lat": 31.3108, "lng": 120.6267, "capacity": 3500, "address": "观前街", "description": "商业区地下空间"},
        {"name": "园区星海广场", "type": "civil", "level": "medium", "lat": 31.3167, "lng": 120.7286, "capacity": 4000, "address": "星海街", "description": "园区人防工程"},
        {"name": "木渎古镇地下", "type": "civil", "level": "basic", "lat": 31.2586, "lng": 120.5125, "capacity": 2500, "address": "木渎镇", "description": "旅游区人防工程"}
      ]
    },
    {
      "city": "长沙",
      "center": [112.9388, 28.2282],
      "shelters": [
        {"name": "长沙站地下", "type": "civil", "level": "high", "lat": 28.1925, "lng": 113.0089, "capacity": 5000, "address": "车站中路", "description": "火车站人防工程"},
        {"name": "长沙南站地下", "type": "civil", "level": "high", "lat": 28.1503, "lng": 113.0578, "capacity": 6500, "address": "花侯路", "description": "高铁站人防工程"},
        {"name": "五一广场地下", "type": "underground", "level": "medium", "lat": 28.1945, "lng": 112.9783, "capacity": 4500, "address": "五一大道", "description": "商业区地下空间"},
        {"name": "橘子洲地下", "type": "civil", "level": "medium", "lat": 28.1714, "lng": 112.9576, "capacity": 4000, "address": "橘子洲头", "description": "景区人防工程"},
        {"name": "黄花国际机场T2", "type": "bunker", "level": "high", "lat": 28.1892, "lng": 113.2197, "capacity": 7000, "address": "机场大道", "description": "机场重点人防工程"},
        {"name": "岳麓山地下", "type": "civil", "level": "medium", "lat": 28.1823, "lng": 112.9345, "capacity": 3500, "address": "岳麓山", "description": "山区人防工程"}
      ]
    },
    {
      "city": "郑州",
      "center": [113.6253, 34.7466],
      "shelters": [
        {"name": "郑州站地下", "type": "civil", "level": "high", "lat": 34.7483, "lng": 113.6583, "capacity": 5500, "address": "二马路", "description": "火车站人防工程"},
        {"name": "郑州东站地下", "type": "civil", "level": "high", "lat": 34.7578, "lng": 113.7678, "capacity": 7000, "address": "心怡路", "description": "高铁站人防工程"},
        {"name": "二七广场地下", "type": "underground", "level": "medium", "lat": 34.7523, "lng": 113.6656, "capacity": 4000, "address": "二七路", "description": "商业区地下空间"},
        {"name": "紫荆山地铁站", "type": "metro", "level": "medium", "lat": 34.7645, "lng": 113.6789, "capacity": 3500, "address": "紫荆山路", "description": "地铁1号线/2号线换乘站"},
        {"name": "新郑国际机场T2", "type": "bunker", "level": "high", "lat": 34.5197, "lng": 113.8408, "capacity": 7500, "address": "机场大道", "description": "机场重点人防工程"}
      ]
    },
    {
      "city": "沈阳",
      "center": [123.4315, 41.8057],
      "shelters": [
        {"name": "沈阳站地下", "type": "civil", "level": "high", "lat": 41.7933, "lng": 123.3833, "capacity": 5500, "address": "胜利南街", "description": "火车站人防工程"},
        {"name": "沈阳北站地下", "type": "civil", "level": "high", "lat": 41.8167, "lng": 123.4333, "capacity": 6000, "address": "北站路", "description": "高铁站人防工程"},
        {"name": "中街地下", "type": "underground", "level": "medium", "lat": 41.8, "lng": 123.4167, "capacity": 4000, "address": "中街路", "description": "商业区地下空间"},
        {"name": "太原街地下", "type": "underground", "level": "medium", "lat": 41.7833, "lng": 123.4, "capacity": 3500, "address": "太原南街", "description": "商业区地下空间"},
        {"name": "桃仙国际机场T3", "type": "bunker", "level": "high", "lat": 41.6333, "lng": 123.4833, "capacity": 7000, "address": "机场路", "description": "机场重点人防工程"}
      ]
    },
    {
      "city": "哈尔滨",
      "center": [126.534, 45.8038],
      "shelters": [
        {"name": "哈尔滨站地下", "type": "civil", "level": "high", "lat": 45.7667, "lng": 126.6333, "capacity": 5500, "address": "铁路街", "description": "火车站人防工程"},
        {"name": "哈尔滨西站地下", "type": "civil", "level": "high", "lat": 45.7167, "lng": 126.5667, "capacity": 6000, "address": "哈尔滨大街", "description": "高铁站人防工程"},
        {"name": "中央大街地下", "type": "underground", "level": "medium", "lat": 45.7833, "lng": 126.6167, "capacity": 3500, "address": "中央大街", "description": "旅游区地下空间"},
        {"name": "索菲亚广场地下", "type": "civil", "level": "medium", "lat": 45.7667, "lng": 126.6167, "capacity": 3000, "address": "透笼街", "description": "广场人防工程"},
        {"name": "太平国际机场T2", "type": "bunker", "level": "high", "lat": 45.6167, "lng": 126.25, "capacity": 6500, "address": "机场高速", "description": "机场重点人防工程"}
      ]
    },
    {
      "city": "昆明",
      "center": [102.8329, 24.8801],
      "shelters": [
        {"name": "昆明站地下", "type": "civil", "level": "high", "lat": 25.0167, "lng": 102.7167, "capacity": 5000, "address": "北京路", "description": "火车站人防工程"},
        {"name": "昆明南站地下", "type": "civil", "level": "high", "lat": 24.8667, "lng": 102.8667, "capacity": 6000, "address": "祥园街", "description": "高铁站人防工程"},
        {"name": "翠湖地下", "type": "civil", "level": "medium", "lat": 25.05, "lng": 102.7, "capacity": 3500, "address": "翠湖南路", "description": "公园人防工程"},
        {"name": "南屏街地下", "type": "underground", "level": "medium", "lat": 25.0333, "lng": 102.7167, "capacity": 3000, "address": "南屏街", "description": "商业区地下空间"},
        {"name": "长水国际机场", "type": "bunker", "level": "high", "lat": 25.1, "lng": 102.9333, "capacity": 7000, "address": "机场高速", "description": "机场重点人防工程"}
      ]
    },
    {
      "city": "合肥",
      "center": [117.2272, 31.8206],
      "shelters": [
        {"name": "合肥站地下", "type": "civil", "level": "high", "lat": 31.8833, "lng": 117.3167, "capacity": 5000, "address": "站前路", "description": "火车站人防工程"},
        {"name": "合肥南站地下", "type": "civil", "level": "high", "lat": 31.8, "lng": 117.3, "capacity": 6000, "address": "龙川路", "description": "高铁站人防工程"},
        {"name": "四牌楼地下", "type": "underground", "level": "medium", "lat": 31.8667, "lng": 117.2833, "capacity": 3500, "address": "长江中路", "description": "商业区地下空间"},
        {"name": "天鹅湖地下", "type": "civil", "level": "medium", "lat": 31.8167, "lng": 117.2333, "capacity": 4000, "address": "天鹅湖路", "description": "政务区人防工程"},
        {"name": "新桥国际机场", "type": "bunker", "level": "high", "lat": 31.9833, "lng": 116.9833, "capacity": 6500, "address": "机场高速", "description": "机场重点人防工程"}
      ]
    },
    {
      "city": "南昌",
      "center": [115.854, 28.682],
      "shelters": [
        {"name": "南昌站地下", "type": "civil", "level": "high", "lat": 28.6667, "lng": 115.8833, "capacity": 5000, "address": "二七南路", "description": "火车站人防工程"},
        {"name": "南昌西站地下", "type": "civil", "level": "high", "lat": 28.6333, "lng": 115.7833, "capacity": 6000, "address": "龙兴大街", "description": "高铁站人防工程"},
        {"name": "八一广场地下", "type": "civil", "level": "high", "lat": 28.6833, "lng": 115.8833, "capacity": 5000, "address": "八一大道", "description": "广场人防工程"},
        {"name": "中山路地下", "type": "underground", "level": "medium", "lat": 28.6833, "lng": 115.8833, "capacity": 3500, "address": "中山路", "description": "商业区地下空间"},
        {"name": "昌北国际机场T2", "type": "bunker", "level": "high", "lat": 28.8667, "lng": 115.9, "capacity": 6000, "address": "机场大道", "description": "机场重点人防工程"}
      ]
    },
    {
      "city": "贵阳",
      "center": [106.6302, 26.6477],
      "shelters": [
        {"name": "贵阳站地下", "type": "civil", "level": "high", "lat": 26.5667, "lng": 106.7, "capacity": 4500, "address": "遵义路", "description": "火车站人防工程"},
        {"name": "贵阳北站地下", "type": "civil", "level": "high", "lat": 26.6167, "lng": 106.6833, "capacity": 5500, "address": "北站路", "description": "高铁站人防工程"},
        {"name": "喷水池地下", "type": "underground", "level": "medium", "lat": 26.5833, "lng": 106.7167, "capacity": 3000, "address": "中华北路", "description": "商业区地下空间"},
        {"name": "甲秀楼地下", "type": "civil", "level": "medium", "lat": 26.5667, "lng": 106.7167, "capacity": 2500, "address": "南明路", "description": "景区人防工程"},
        {"name": "龙洞堡国际机场T2", "type": "bunker", "level": "high", "lat": 26.5333, "lng": 106.8, "capacity": 6000, "address": "机场大道", "description": "机场重点人防工程"}
      ]
    },
    {
      "city": "福州",
      "center": [119.2965, 26.0745],
      "shelters": [
        {"name": "福州站地下", "type": "civil", "level": "high", "lat": 26.1167, "lng": 119.3167, "capacity": 5000, "address": "华林路", "description": "火车站人防工程"},
        {"name": "福州南站地下", "type": "civil", "level": "high", "lat": 26.05, "lng": 119.3833, "capacity": 5500, "address": "胪雷路", "description": "高铁站人防工程"},
        {"name": "东街口地下", "type": "underground", "level": "medium", "lat": 26.0833, "lng": 119.3, "capacity": 3500, "address": "八一七北路", "description": "商业区地下空间"},
        {"name": "三坊七巷地下", "type": "civil", "level": "medium", "lat": 26.0833, "lng": 119.3, "capacity": 3000, "address": "杨桥东路", "description": "旅游区人防工程"},
        {"name": "长乐国际机场", "type": "bunker", "level": "high", "lat": 25.9333, "lng": 119.6667, "capacity": 6000, "address": "机场高速", "description": "机场重点人防工程"}
      ]
    },
    {
      "city": "南宁",
      "center": [108.3661, 22.8172],
      "shelters": [
        {"name": "南宁站地下", "type": "civil", "level": "high", "lat": 22.8167, "lng": 108.3167, "capacity": 5000, "address": "中华路", "description": "火车站人防工程"},
        {"name": "南宁东站地下", "type": "civil", "level": "high", "lat": 22.7833, "lng": 108.3833, "capacity": 6000, "address": "凤岭北路", "description": "高铁站人防工程"},
        {"name": "朝阳广场地下", "type": "underground", "level": "medium", "lat": 22.8167, "lng": 108.3667, "capacity": 4000, "address": "朝阳路", "description": "商业区地下空间"},
        {"name": "青秀山地下", "type": "civil", "level": "medium", "lat": 22.7833, "lng": 108.4, "capacity": 3500, "address": "青秀山路", "description": "景区人防工程"},
        {"name": "吴圩国际机场T2", "type": "bunker", "level": "high", "lat": 22.6167, "lng": 108.1667, "capacity": 6500, "address": "机场高速", "description": "机场重点人防工程"}
      ]
    },
    {
      "city": "兰州",
      "center": [103.8343, 36.0611],
      "shelters": [
        {"name": "兰州站地下", "type": "civil", "level": "high", "lat": 36.0333, "lng": 103.8333, "capacity": 4500, "address": "火车站东路", "description": "火车站人防工程"},
        {"name": "兰州西站地下", "type": "civil", "level": "high", "lat": 36.0667, "lng": 103.7667, "capacity": 5500, "address": "西津西路", "description": "高铁站人防工程"},
        {"name": "西关十字地下", "type": "underground", "level": "medium", "lat": 36.05, "lng": 103.8333, "capacity": 3000, "address": "张掖路", "description": "商业区地下空间"},
        {"name": "东方红广场地下", "type": "civil", "level": "medium", "lat": 36.05, "lng": 103.85, "capacity": 4000, "address": "庆阳路", "description": "广场人防工程"},
        {"name": "中川国际机场T2", "type": "bunker", "level": "high", "lat": 36.5, "lng": 103.6167, "capacity": 6000, "address": "机场高速", "description": "机场重点人防工程"}
      ]
    },
    {
      "city": "乌鲁木齐",
      "center": [87.6168, 43.8256],
      "shelters": [
        {"name": "乌鲁木齐站地下", "type": "civil", "level": "high", "lat": 43.7833, "lng": 87.6, "capacity": 5500, "address": "高铁北一路", "description": "火车站人防工程"},
        {"name": "南站地下", "type": "civil", "level": "high", "lat": 43.7833, "lng": 87.6, "capacity": 5000, "address": "南站路", "description": "火车站人防工程"},
        {"name": "友好商圈地下", "type": "underground", "level": "medium", "lat": 43.8333, "lng": 87.6, "capacity": 3500, "address": "友好北路", "description": "商业区地下空间"},
        {"name": "大巴扎地下", "type": "civil", "level": "medium", "lat": 43.7667, "lng": 87.6167, "capacity": 3000, "address": "解放南路", "description": "旅游区人防工程"},
        {"name": "地窝堡国际机场T3", "type": "bunker", "level": "high", "lat": 43.9, "lng": 87.4667, "capacity": 6500, "address": "机场高速", "description": "机场重点人防工程"}
      ]
    }
  ],
  "meta": {
    "version": "1.0",
    "updated": "2025-01-16",
    "total_cities": 27,
    "data_source": "各地人防办公开数据、地铁规划、地下空间规划",
    "description": "中国主要城市地下人防工程及避难所数据"
  }
}
